{"version":"1.0.0","total":34,"pois":[{"autoid":7,"id":"B0FFF3IW9G","name":"西集综合检查站","address":"京哈高速路37.5公里处","tel":"010-88313449","servicehours":"7*24h","remark":"在高速上调头，全程只要15元。","servicetype":"1","lat":"39.800365","lon":"116.903656"},{"autoid":9,"id":"B0FFF3IW9G","name":"应寺综合检查站","address":"京沪高速路31.5公里处","tel":"010-80525400","servicehours":"7*24h","remark":null,"servicetype":"1","lat":"39.641785","lon":"116.729908"},{"autoid":11,"id":"B0FFF3IW9G","name":"窦店办证处","address":"京港澳高速路38公里处","tel":"010-80318661\r","servicehours":"7*24h","remark":null,"servicetype":"1","lat":"39.630155","lon":"116.0815"},{"autoid":12,"id":"B0FFF3IW9G","name":"琉璃河综合检查站","address":"京深路55公里处","tel":"010-89381242\r","servicehours":"7*24h","remark":null,"servicetype":"1","lat":"39.592655","lon":"116.016962"},{"autoid":13,"id":"B0FFF3IW9G","name":"长沟综合检查站","address":"房山区房易路10.4公里处","tel":"010-61361458","servicehours":"7*24h","remark":null,"servicetype":"1","lat":"39.594131","lon":"115.905648"},{"autoid":14,"id":"B0FFF3IW9G","name":"觅子店综合检查站","address":"103路51公里处","tel":"010-80566010","servicehours":"7*24h","remark":null,"servicetype":"1","lat":"39.722215","lon":"116.88069"},{"autoid":15,"id":"B0FFF3IW9G","name":"白庙南综合检查站","address":"通燕高速29.5公里处","tel":"010-69591249","servicehours":"7*24h","remark":null,"servicetype":"1","lat":"39.937378","lon":"116.767233"},{"autoid":16,"id":"B0FFF3IW9G","name":"永乐店办证处","address":"京津高速公路进京方向32.5公","tel":"010-80586160\r","servicehours":"7*24h","remark":null,"servicetype":"1","lat":"39.640595","lon":"116.817069"},{"autoid":17,"id":"B0FFF3IW9G","name":"康庄综合检查站","address":"G6路68公里处","tel":"010-61164794","servicehours":"7*24h","remark":null,"servicetype":"1","lat":"40.357534","lon":"115.894925"},{"autoid":18,"id":"B0FFF3IW9G","name":"芹峪口综合检查站","address":"109国道59公里+100米处","tel":"010-61830183","servicehours":"7*24h","remark":null,"servicetype":"1","lat":"40.03848","lon":"115.875898"},{"autoid":19,"id":"B0FFF3IW9G","name":"榆垡办证处","address":"106公路38公里处","tel":"010-89213399","servicehours":"7*24h","remark":null,"servicetype":"1","lat":"39.507445","lon":"116.324596"},{"autoid":20,"id":"B0FFF3IW9G","name":"凤河营办证处","address":"104国道45公里","tel":"010-80202567","servicehours":"7*24h","remark":null,"servicetype":"1","lat":"39.611168","lon":"116.692614"},{"autoid":21,"id":"B0FFF3IW9G","name":"大广服务区办证处","address":"大广路1348公里处","tel":"010-89219277","servicehours":"7*24h","remark":null,"servicetype":"1","lat":"39.502832","lon":"116.295224"},{"autoid":22,"id":"B0FFF3IW9G","name":"汤河口综合检查站","address":"京加路95公里处","tel":"010-89671245","servicehours":"7*24h","remark":null,"servicetype":"1","lat":"40.731734","lon":"116.637962"},{"autoid":23,"id":"B0FFF3IW9G","name":"夏各庄办证处","address":"京平高速67公里处","tel":"010-60912030","servicehours":"7*24h","remark":null,"servicetype":"1","lat":"40.128163","lon":"117.203801"},{"autoid":24,"id":"B0FFF3IW9G","name":"大旺务综合检查站","address":"平三路6.1公里处","tel":"010-69991279","servicehours":"7*24h","remark":null,"servicetype":"1","lat":"40.08816","lon":"117.106458"},{"autoid":25,"id":"B0FFF3IW9G","name":"马坊综合检查站","address":"密三路49.4公里处","tel":"010-69991279","servicehours":"7*24h","remark":null,"servicetype":"1","lat":"40.034021","lon":"117.011344"},{"autoid":26,"id":"B0FFF3IW9G","name":"上堡子综合检查站","address":"平蓟路23.8公里处","tel":"010-69991279","servicehours":"7*24h","remark":null,"servicetype":"1","lat":"40.179004","lon":"117.369942"},{"autoid":27,"id":"B0FFF3IW9G","name":"司马办证处","address":"京承高速路124.5公里处","tel":"010-69041895","servicehours":"7*24h","remark":null,"servicetype":"1","lat":"40.654564","lon":"117.25575"},{"autoid":28,"id":"B0FFF3IW9G","name":"松树峪办证处","address":"101国道103公里处","tel":"010-69036473","servicehours":"7*24h","remark":null,"servicetype":"1","lat":"40.556768","lon":"117.148318"},{"autoid":29,"id":"B0FFF3IW9G","name":"墙子路综合检查站","address":"密兴路35公里处","tel":"010-69041895","servicehours":"7*24h","remark":null,"servicetype":"1","lat":"40.421073","lon":"117.218017"},{"autoid":30,"id":"B0FFF3IW9G","name":"西康综合检查站","address":"西关路7.9公里处","tel":"010-61161538","servicehours":"7*24h","remark":null,"servicetype":"1","lat":"40.359639","lon":"115.873029"},{"autoid":31,"id":"B0FFF3IW9G","name":"白河堡综合检查站","address":"滦赤路157.2公里","tel":"010-60152037","servicehours":"7*24h","remark":null,"servicetype":"1","lat":"40.653808","lon":"116.165571"},{"autoid":32,"id":"B0FFF3IW9G","name":"张山营综合检查站","address":"110国道92.4公里处","tel":"010-69111015","servicehours":"7*24h","remark":null,"servicetype":"1","lat":"40.471994","lon":"115.839746"},{"autoid":33,"id":"B0FFF3IW9G","name":"东城交通支队天坛大队","address":"东城区永外民主北街26号","tel":"010-87244501;010-87280909","servicehours":"工作日9:00~17:00 周末及节假日9:00至16:00","remark":null,"servicetype":"2","lat":"39.868572","lon":"116.402199"},{"autoid":34,"id":"B0FFF3IW9G","name":"西城交通支队办公大厅","address":"北京市西城区赵登禹路303号","tel":"010-68399206","servicehours":"工作日9:00~17:00 周末及节假日9:00至16:00","remark":null,"servicetype":"2","lat":"39.928707","lon":"116.367064"},{"autoid":35,"id":"B0FFF3IW9G","name":"西城交通支队广安门大队","address":"北京市西城区红莲南里33号","tel":"010-68399472","servicehours":"工作日9:00~17:00 周末及节假日9:00至16:00","remark":null,"servicetype":"2","lat":"39.876832","lon":"116.337421"},{"autoid":36,"id":"B0FFF3IW9G","name":"京哈高速白鹿收费站","address":"京哈高速进京方向白鹿收费站(7.5公里)","tel":"010-88313459","servicehours":"工作日9:00~17:00 周末及节假日9:00至16:00","remark":null,"servicetype":"2","lat":"39.867887","lon":"116.579606"},{"autoid":37,"id":"B0FFF3IW9G","name":"海淀交通支队车辆管理站","address":"海淀区后厂村路99号（一层车管站大厅）","tel":"010-62553336","servicehours":"工作日9:00~17:00 周末及节假日9:00至16:00","remark":null,"servicetype":"2","lat":"40.048647","lon":"116.262076"},{"autoid":38,"id":"B0FFF3IW9G","name":"丰台支队对外执法办公大厅","address":"丰台区梆子井甲18号","tel":"010-68399740转5739","servicehours":"工作日9:00~17:00 周末及节假日9:00至16:00","remark":null,"servicetype":"2","lat":"39.85959","lon":"116.346549"},{"autoid":39,"id":"B0FFF3IW9G","name":"石景山交通支队对外办公大厅","address":"石景山区杨庄路8号","tel":"010-68399806","servicehours":"工作日9:00~17:00 周末及节假日9:00至16:00","remark":null,"servicetype":"2","lat":"39.922639","lon":"116.195869"},{"autoid":40,"id":"B0FFF3IW9G","name":"房山公安交通办公大厅","address":"房山区月华北大街32号","tel":"010-68397030转5005","servicehours":"工作日9:00~17:00 周末及节假日9:00至16:00","remark":null,"servicetype":"2","lat":"39.744531","lon":"116.145206"},{"autoid":41,"id":"B0FFF3IW9G","name":"通州支队璐河大队执法站","address":"通州区梨园北街193号","tel":"010-68397190","servicehours":"工作日9:00~17:00 周末及节假日9:00至16:00","remark":null,"servicetype":"2","lat":"39.886504","lon":"116.669124"},{"autoid":42,"id":"B000A8896M","name":"昌平交通支队车辆管理站","address":"昌平区马池口镇马池口村东","tel":"010-88313830","servicehours":"工作日9:00~17:00 周末及节假日9:00至16:00","remark":"注意办公时间，拿上旧证。","servicetype":"2","lat":"40.183924","lon":"116.231317"}]}
